City_ID,City,Lat,Lng,Max Temp,Humidity,Cloudiness,Wind Speed,Country,Date
0,vao,-22.6667,167.4833,79.29,87,87,20.13,NC,1675543374
1,jamestown,42.097,-79.2353,26.02,28,48,7.0,US,1675543659
2,sonoita,31.85,-112.8333,70.9,19,0,3.65,MX,1675543590
3,grand-santi,4.25,-54.3833,73.92,98,94,5.48,GF,1675543660
4,itigi,-5.7,34.4833,61.41,95,96,0.45,TZ,1675543661
5,avarua,-21.2078,-159.775,82.45,78,40,13.8,CK,1675543661
6,souillac,-20.5167,57.5167,79.18,83,40,5.75,MU,1675543477
7,calama,-22.4667,-68.9333,73.89,33,20,24.16,CL,1675543662
8,severo-kurilsk,50.6789,156.125,25.95,73,100,6.22,RU,1675543663
9,pevek,69.7008,170.3133,-35.66,100,91,1.41,RU,1675543663
10,puerto ayora,-0.7393,-90.3518,85.96,87,40,10.0,EC,1675543664
11,hilo,19.7297,-155.09,74.25,97,100,3.0,US,1675543664
12,half moon bay,37.4636,-122.4286,63.05,92,100,13.8,US,1675543403
13,abeche,13.8292,20.8324,75.56,12,100,7.67,TD,1675543665
14,busselton,-33.65,115.3333,72.55,45,80,8.05,AU,1675543665
15,huilong,31.8111,121.655,37.92,80,100,7.09,CN,1675543666
16,sainte-marie,-20.8968,55.5496,78.96,87,94,13.8,RE,1675543666
17,mataura,-46.1927,168.8643,71.78,71,100,4.34,NZ,1675543667
18,longyearbyen,78.2186,15.6401,12.04,79,0,13.8,SJ,1675543667
19,hermanus,-34.4187,19.2345,66.79,93,24,7.18,ZA,1675543668
20,kavieng,-2.5744,150.7967,81.7,73,97,4.92,PG,1675543668
21,ewa beach,21.3156,-158.0072,71.6,91,100,10.36,US,1675543504
22,thompson,55.7435,-97.8558,-3.84,71,75,2.3,CA,1675543669
23,haines junction,60.7522,-137.5108,12.15,79,100,3.44,CA,1675543478
24,atuona,-9.8,-139.0333,78.78,75,37,19.28,PF,1675543670
25,kunashak,55.7032,61.5498,0.12,65,42,4.41,RU,1675543670
26,chokurdakh,70.6333,147.9167,-26.34,98,67,7.81,RU,1675543671
27,carnarvon,-24.8667,113.6333,78.24,71,1,4.38,AU,1675543671
28,tezu,27.9167,96.1667,60.44,28,21,4.25,IN,1675543672
29,hobart,-42.8794,147.3294,57.25,70,20,8.05,AU,1675543376
30,nizwa,22.9333,57.5333,69.85,57,0,2.37,OM,1675543672
31,san jose,37.3394,-121.895,65.14,72,75,18.41,US,1675543250
32,kapaa,22.0752,-159.319,71.1,93,100,3.0,US,1675543673
33,ushuaia,-54.8,-68.3,53.26,58,75,9.22,AR,1675543674
34,san patricio,28.017,-97.5169,71.17,53,48,11.77,US,1675543488
35,husavik,66.0449,-17.3389,27.27,71,3,12.8,IS,1675543674
36,kysyl-syr,63.8986,122.7617,-25.8,98,100,4.47,RU,1675543675
37,olga,43.7444,135.2892,8.15,83,100,4.14,RU,1675543675
38,fortuna,40.5982,-124.1573,61.99,58,0,28.77,US,1675543431
39,colares,38.7992,-9.4469,56.75,62,0,15.01,PT,1675543676
40,conceicao do araguaia,-8.2578,-49.2647,78.44,87,97,3.87,BR,1675543486
41,nouadhibou,20.931,-17.0347,69.78,37,78,10.36,MR,1675543677
42,mega,4.05,38.3,63.54,32,48,7.49,ET,1675543677
43,barrow,71.2906,-156.7887,-23.78,76,40,8.05,US,1675543678
44,neiafu,-18.65,-173.9833,83.08,83,75,8.05,TO,1675543679
45,hami,42.8,93.45,30.33,37,100,5.59,CN,1675543429
46,tuy hoa,13.0833,109.3,73.02,85,98,2.98,VN,1675543679
47,plettenberg bay,-34.0527,23.3716,72.39,71,24,4.81,ZA,1675543680
48,tuktoyaktuk,69.4541,-133.0374,-43.6,66,0,3.44,CA,1675543680
49,katherine,-14.4667,132.2667,73.72,94,34,4.61,AU,1675543681
50,ananas,19.2466,-71.9557,81.64,48,3,16.26,HT,1675543681
51,fayetteville,35.0527,-78.8784,43.5,29,0,5.75,US,1675543039
52,punta arenas,-53.15,-70.9167,50.11,93,100,6.91,CL,1675543683
53,vestmannaeyjar,63.4427,-20.2734,38.61,85,100,25.66,IS,1675543463
54,qaanaaq,77.484,-69.3632,-3.48,64,99,5.91,GL,1675543688
55,nome,64.5011,-165.4064,10.47,85,100,8.05,US,1675543505
56,bambous virieux,-20.3428,57.7575,79.21,83,40,5.75,MU,1675543690
57,vagur,61.4732,-6.8119,42.22,65,11,32.55,FO,1675543692
58,rikitea,-23.1203,-134.9692,78.75,75,3,14.58,PF,1675543653
59,nanortalik,60.1432,-45.2371,25.79,74,99,22.26,GL,1675543700
60,xichang,27.8964,102.2634,40.42,72,1,2.62,CN,1675543702
61,victoria,22.2855,114.1577,64.94,85,100,11.01,HK,1675543706
62,codrington,-38.2667,141.9667,58.3,81,100,5.35,AU,1675543641
63,khatanga,71.9667,102.5,-37.68,100,53,5.14,RU,1675543709
64,bluff,-46.6,168.3333,64.54,89,100,7.83,NZ,1675543710
65,grindavik,63.8424,-22.4338,37.87,70,75,24.16,IS,1675543711
66,matara,5.9485,80.5353,74.01,93,58,5.91,LK,1675543712
67,mahebourg,-20.4081,57.7,79.25,83,40,5.75,MU,1675543713
68,wewak,-3.5534,143.6268,77.58,87,100,3.91,PG,1675543713
69,pisco,-13.7,-76.2167,75.25,83,0,8.05,PE,1675543714
70,bubaque,11.2833,-15.8333,77.36,67,9,12.62,GW,1675543438
71,bourail,-21.5667,165.4833,82.42,76,59,3.83,NC,1675543714
72,inhambane,-23.865,35.3833,76.05,86,8,8.52,MZ,1675543715
73,bristol,41.8334,-71.1662,15.82,28,38,5.99,US,1675543715
74,cape town,-33.9258,18.4232,71.11,86,20,10.36,ZA,1675543716
75,areosa,41.7178,-8.8571,51.96,72,0,5.82,PT,1675543717
76,vaini,-21.2,-175.2,82.56,83,40,9.22,TO,1675543717
77,sao jose dos campos,-23.1794,-45.8869,87.66,58,20,10.36,BR,1675543526
78,baruun-urt,46.6806,113.2792,-3.62,88,29,3.09,MN,1675543718
79,rurrenabaque,-14.4413,-67.5278,71.24,99,100,1.68,BO,1675543718
80,palmer,42.1584,-72.3287,15.66,23,75,3.44,US,1675543719
81,karratha,-20.7377,116.8463,87.71,48,66,8.93,AU,1675543720
82,west plains,36.7281,-91.8524,47.08,55,0,16.11,US,1675543720
83,tessalit,20.1986,1.0114,62.08,15,76,10.4,ML,1675543720
84,albany,42.6001,-73.9662,11.89,46,61,3.67,US,1675543620
85,butaritari,3.0707,172.7902,81.32,80,66,19.69,KI,1675543721
86,morehead,37.2711,-87.1764,48.85,40,0,13.8,US,1675543562
87,upernavik,72.7868,-56.1549,-6.47,95,100,6.26,GL,1675543722
88,nanakuli,21.3906,-158.1547,71.46,72,75,6.91,US,1675543692
89,daru,-9.0763,143.2092,75.45,94,100,8.61,PG,1675543631
90,sterling,39.0062,-77.4286,33.85,33,20,14.97,US,1675543723
91,bredasdorp,-34.5322,20.0403,71.42,78,0,6.46,ZA,1675543723
92,port elizabeth,-33.918,25.5701,75.74,63,100,6.02,ZA,1675543724
93,zhanjiang,21.2815,110.3427,65.03,91,100,14.27,CN,1675543724
94,cherskiy,68.75,161.3,-35.72,100,95,4.72,RU,1675543725
95,marzuq,14.4,46.4667,64.09,69,33,3.15,YE,1675543726
96,martil,35.6166,-5.2752,51.76,82,0,1.14,MA,1675543726
97,tazovskiy,67.4667,78.7,8.11,96,100,4.27,RU,1675543437
98,stornoway,58.2093,-6.3865,40.03,80,75,9.22,GB,1675543727
99,ribeira grande,38.5167,-28.7,62.78,94,20,10.36,PT,1675543727
100,saskylakh,71.9167,114.0833,-38.06,100,83,2.53,RU,1675543728
101,komsomolskiy,40.4272,71.7189,39.92,87,100,9.22,UZ,1675543728
102,viru,-8.4167,-78.75,81.66,54,80,9.73,PE,1675543729
103,hithadhoo,-0.6,73.0833,81.23,73,98,14.52,MV,1675543729
104,pandan,14.0453,124.1694,76.46,88,99,15.28,PH,1675543730
105,yellowknife,62.456,-114.3525,-17.88,69,75,3.44,CA,1675543730
106,mizque,-17.941,-65.3402,56.5,91,100,3.29,BO,1675543731
107,cidreira,-30.1811,-50.2056,77.72,65,57,9.78,BR,1675543731
108,ostrovnoy,68.0531,39.5131,12.92,85,100,11.81,RU,1675543732
109,gorodishche,48.8045,44.4744,27.48,86,100,11.18,RU,1675543732
110,wasilla,61.5814,-149.4394,23.31,92,100,0.0,US,1675543708
111,vagay,57.9375,69.0217,-0.76,99,98,2.06,RU,1675543733
112,sur,22.5667,59.5289,70.3,68,2,4.59,OM,1675543459
113,choix,26.7092,-108.3219,89.65,14,1,7.0,MX,1675543590
114,east london,-33.0153,27.9116,74.82,83,100,11.21,ZA,1675543734
115,long beach,33.767,-118.1892,75.85,52,0,8.05,US,1675543671
116,saint-pierre,-21.3393,55.4781,78.48,83,0,4.61,RE,1675543735
117,mount isa,-20.7333,139.5,71.37,37,99,9.22,AU,1675543735
118,storforshei,66.4043,14.5233,8.38,85,100,0.0,NO,1675543736
119,crateus,-5.1783,-40.6775,88.21,29,73,6.69,BR,1675543736
120,lang son,21.8333,106.7333,64.42,98,100,2.42,VN,1675543737
121,port alfred,-33.5906,26.891,73.18,88,100,15.57,ZA,1675543737
122,mitu,1.1983,-70.1733,85.05,58,56,4.38,CO,1675543738
123,comodoro rivadavia,-45.8667,-67.5,75.06,46,0,17.27,AR,1675543738
124,hambantota,6.1241,81.1185,75.52,86,18,11.72,LK,1675543598
125,lebu,-37.6167,-73.65,64.98,81,54,8.93,CL,1675543739
126,hervey bay,-25.2986,152.8535,78.48,84,94,11.61,AU,1675543739
127,khonsa,27.0167,95.5667,54.36,51,9,3.47,IN,1675543740
128,torbay,47.6666,-52.7314,7.57,79,75,23.02,CA,1675543551
129,sibolga,1.7427,98.7792,75.78,86,100,2.68,ID,1675543740
130,tiznit,29.5833,-9.5,51.44,48,6,1.83,MA,1675543741
131,belaya gora,68.5333,146.4167,-34.31,100,99,4.05,RU,1675543742
132,pangnirtung,66.1451,-65.7125,-34.6,67,0,0.0,CA,1675543743
133,jalu,29.0331,21.5482,55.33,50,100,4.63,LY,1675543744
134,forestville,38.8451,-76.875,33.33,32,0,13.8,US,1675543485
135,ayan,56.45,138.1667,-9.69,88,85,5.39,RU,1675543747
136,dhadar,28.3305,75.0632,65.37,28,0,5.7,IN,1675543749
137,maragogi,-9.0122,-35.2225,79.59,78,43,8.03,BR,1675543750
138,kodiak,57.79,-152.4072,24.31,86,0,5.75,US,1675543756
139,vila franca do campo,37.7167,-25.4333,57.61,84,4,6.55,PT,1675543611
140,kaohsiung,22.6163,120.3133,66.15,83,75,4.61,TW,1675543579
141,orbetello,42.4408,11.2196,48.22,76,0,6.98,IT,1675543762
142,shimoda,34.6667,138.95,45.14,69,33,10.47,JP,1675543768
143,kirillov,59.863,38.3813,20.71,96,98,5.91,RU,1675543772
144,hasaki,35.7333,140.8333,37.22,57,3,17.29,JP,1675543773
145,los llanos de aridane,28.6585,-17.9182,58.75,68,75,8.05,ES,1675543774
146,dolinsk,47.35,142.8,-3.8,91,24,5.03,RU,1675543774
147,port augusta,-32.5,137.7667,62.73,57,2,5.14,AU,1675543775
148,amapa,1.0,-52.0,72.18,99,100,4.52,BR,1675543775
149,oga,46.4631,10.347,29.08,96,83,8.08,IT,1675543776
150,pascagoula,30.3658,-88.5561,64.42,44,0,8.05,US,1675543776
151,lavrentiya,65.5833,-171.0,-13.27,94,94,6.91,RU,1675543777
152,georgetown,5.4112,100.3354,78.73,83,20,6.91,MY,1675543575
153,lamas,-6.4167,-76.5333,82.87,51,100,4.18,PE,1675543777
154,garchitorena,13.8804,123.6946,75.72,89,99,12.01,PH,1675543778
155,maniitsoq,65.4167,-52.9,1.51,81,10,16.15,GL,1675543778
156,tiksi,71.6872,128.8694,-15.66,100,100,4.43,RU,1675543779
157,bethel,41.3712,-73.414,18.93,35,75,8.05,US,1675543603
158,arraial do cabo,-22.9661,-42.0278,89.56,62,0,11.5,BR,1675543780
159,taksimo,56.3444,114.8794,-5.67,91,100,2.33,RU,1675543781
160,bordighera,43.7806,7.6645,56.61,92,5,3.0,IT,1675543781
161,katsuura,35.1333,140.3,43.9,68,4,12.59,JP,1675543781
162,qasigiannguit,68.8193,-51.1922,-1.95,99,99,7.2,GL,1675543782
163,uray,60.1247,64.7758,0.21,99,99,3.98,RU,1675543783
164,castro,-24.7911,-50.0119,68.34,91,73,7.72,BR,1675543784
165,hobyo,5.3505,48.5268,75.24,72,63,15.79,SO,1675543784
166,pacific grove,36.6177,-121.9166,62.65,84,20,18.01,US,1675543540
167,paita,-5.0892,-81.1144,79.23,64,95,14.47,PE,1675543785
168,westport,41.1415,-73.3579,21.88,31,40,7.0,US,1675543632
169,najran,17.4924,44.1277,65.05,48,57,2.75,SA,1675543785
170,kieta,-6.2167,155.6333,79.03,84,100,3.09,PG,1675543786
171,belgrade,44.804,20.4651,33.46,63,0,19.57,RS,1675543621
172,locri,38.2414,16.2623,49.32,87,48,8.68,IT,1675543787
173,turukhansk,65.8167,87.9833,5.85,97,96,5.44,RU,1675543787
174,ishim,56.1128,69.4902,0.18,100,99,2.51,RU,1675543788
175,tara,56.8944,74.371,2.19,100,100,1.32,RU,1675543788
176,mount darwin,-16.7725,31.5838,69.6,89,100,1.9,ZW,1675543789
177,ust-nera,64.5667,143.2,-30.15,100,100,1.83,RU,1675543506
178,cairns,-16.9167,145.7667,80.06,97,75,8.05,AU,1675543790
179,lagoa,39.05,-27.9833,59.14,87,3,17.6,PT,1675543791
180,pasighat,28.0667,95.3333,60.6,35,65,3.15,IN,1675543792
181,cootamundra,-34.65,148.0333,53.94,62,0,3.6,AU,1675543793
182,caconda,-13.7333,15.0667,63.37,81,100,2.8,AO,1675543793
183,klaksvik,62.2266,-6.589,40.12,64,32,31.12,FO,1675543794
184,hede,33.7681,120.2517,33.12,80,68,5.26,CN,1675543794
185,saint-philippe,-21.3585,55.7679,78.39,86,99,10.16,RE,1675543795
186,iquitos,-3.7481,-73.2472,80.64,78,75,8.05,PE,1675543795
187,ndele,8.4109,20.6473,77.36,16,42,5.3,CF,1675543796
188,gladstone,-23.85,151.25,80.53,83,100,5.75,AU,1675543796
189,guerrero negro,27.9769,-114.0611,69.91,34,0,10.51,MX,1675543591
190,clyde river,70.4692,-68.5914,-19.97,52,75,6.91,CA,1675543797
191,gorontalo,0.5412,123.0595,74.53,90,100,3.04,ID,1675543797
192,mongui,5.7215,-72.8491,59.92,42,44,7.43,CO,1675543798
193,vardo,70.3705,31.1107,15.78,73,40,11.5,NO,1675543798
194,coihaique,-45.5752,-72.0662,85.95,26,20,5.75,CL,1675543659
195,saint-leu,-21.15,55.2833,77.86,80,100,2.55,RE,1675543799
196,katobu,-4.9408,122.5276,74.39,93,100,3.4,ID,1675543799
197,dubrovka,53.6907,33.5071,25.27,97,100,8.28,RU,1675543800
198,tabou,4.423,-7.3528,79.36,85,4,7.67,CI,1675543800
199,alofi,-19.0595,-169.9187,82.29,78,100,6.91,NU,1675543801
200,new norfolk,-42.7826,147.0587,56.91,67,15,3.87,AU,1675543801
201,manthani,18.65,79.6667,66.69,23,2,3.69,IN,1675543804
202,zaraza,9.3503,-65.3245,85.14,51,91,8.3,VE,1675543805
203,abu dhabi,24.4667,54.3667,66.31,77,0,3.44,AE,1675543549
204,balkanabat,39.5108,54.3671,41.76,64,97,2.8,TM,1675543812
205,kuvshinovo,57.0295,34.1725,15.06,98,98,3.67,RU,1675543814
206,camacha,33.0833,-16.3333,58.42,67,40,16.11,PT,1675543817
207,adelaide,-34.9333,138.6,59.85,80,40,6.91,AU,1675543577
208,cap malheureux,-19.9842,57.6142,79.47,79,98,1.01,MU,1675543824
209,mahibadhoo,3.7833,72.9667,80.08,73,74,5.12,MV,1675543833
210,hualmay,-11.0964,-77.6139,75.65,73,93,8.68,PE,1675543833
211,mineros,-17.1167,-63.2333,73.15,92,100,3.27,BO,1675543834
212,meulaboh,4.1363,96.1285,74.98,88,97,3.6,ID,1675543834
213,laguna,38.421,-121.4238,65.17,61,100,11.5,US,1675543835
214,norman wells,65.282,-126.8329,-14.76,64,75,3.44,CA,1675543835
215,sawakin,19.1059,37.3321,72.25,68,58,9.69,SD,1675543836
216,oranjestad,12.524,-70.027,82.9,76,75,23.02,AW,1675543615
217,faya,18.3851,42.4509,53.71,64,75,0.25,SA,1675543836
218,langarud,37.197,50.1535,48.92,67,98,5.5,IR,1675543837
219,kanker,20.2719,81.4931,57.85,24,59,2.42,IN,1675543838
220,topeka,39.0483,-95.678,54.79,50,0,20.71,US,1675543736
221,quang ngai,15.1167,108.8,70.3,89,58,3.87,VN,1675543839
222,semnan,35.5729,53.3971,36.03,48,2,3.71,IR,1675543839
223,deputatskiy,69.3,139.9,-31.52,99,96,3.65,RU,1675543839
224,berdigestyakh,62.0989,126.6992,-28.95,100,100,2.33,RU,1675543840
225,srednekolymsk,67.45,153.6833,-32.01,100,100,3.02,RU,1675543840
226,boa vista,2.8197,-60.6733,85.98,58,40,4.61,BR,1675543841
227,beringovskiy,63.05,179.3167,-21.21,90,38,14.32,RU,1675543841
228,moerai,-22.4333,-151.3333,79.97,77,4,15.26,PF,1675543842
229,bengkulu,-3.8004,102.2655,73.83,90,100,4.09,ID,1675543776
230,acarau,-2.8856,-40.12,80.04,80,55,16.24,BR,1675543843
231,atchison,39.563,-95.1216,53.94,45,100,19.77,US,1675543680
232,marsh harbour,26.5412,-77.0636,71.11,78,98,27.87,BS,1675543693
233,shahe,39.2708,113.5478,25.0,31,3,5.37,CN,1675543844
234,turkan,40.3639,50.215,39.38,93,0,6.91,AZ,1675543844
235,rocha,-34.4833,-54.3333,66.6,92,68,16.55,UY,1675543844
236,itarema,-2.9248,-39.9167,79.75,80,45,14.88,BR,1675543772
237,ascension,30.2169,-90.9001,63.09,44,0,3.44,US,1675543845
238,sitka,57.0531,-135.33,35.49,87,100,3.44,US,1675543846
239,oktyabrskiy,54.4815,53.471,9.46,95,100,1.88,RU,1675543827
240,zinder,13.8072,8.9881,75.79,16,100,9.62,NE,1675543847
241,emerald,-23.5333,148.1667,74.34,48,98,13.47,AU,1675543806
242,delta del tigre,-34.7633,-56.3853,77.11,60,75,17.27,UY,1675543848
243,mar del plata,-38.0023,-57.5575,71.94,66,0,14.97,AR,1675543807
244,buala,-8.145,159.5921,79.81,85,100,6.2,SB,1675543600
245,port macquarie,-31.4333,152.9167,65.89,72,1,3.89,AU,1675543807
246,provideniya,64.3833,-173.3,-3.46,89,100,10.71,RU,1675543849
247,kortkeros,61.8106,51.5806,15.8,100,100,1.32,RU,1675543849
248,jasdan,22.0333,71.2,68.25,23,74,7.87,IN,1675543850
249,naze,28.3667,129.4833,56.32,68,99,10.04,JP,1675543806
250,general roca,-39.0333,-67.5833,101.62,12,0,11.45,AR,1675543851
251,tautira,-17.7333,-149.15,79.39,78,60,14.34,PF,1675543851
252,avera,33.194,-82.5271,52.38,35,35,7.0,US,1675543852
253,yar-sale,66.8333,70.8333,12.2,96,100,4.7,RU,1675543853
254,cabo san lucas,22.8909,-109.9124,81.61,39,9,7.02,MX,1675543621
255,college,64.8569,-147.8028,10.35,78,75,3.44,US,1675543853
256,mandalgovi,45.7625,106.2708,11.41,49,100,7.61,MN,1675543854
257,winona,43.9666,-91.7668,31.44,59,0,5.75,US,1675543854
258,ahuimanu,21.4447,-157.8378,71.2,92,100,10.36,US,1675543855
259,coquimbo,-29.9533,-71.3436,73.13,64,0,10.36,CL,1675543855
260,kedrovyy,56.1667,91.8167,-7.19,99,100,1.63,RU,1675543856
261,saint-michel-des-saints,46.6834,-73.9159,-2.7,88,100,6.58,CA,1675543856
262,evanston,42.0411,-87.6901,41.14,60,75,14.97,US,1675543659
263,dongkan,33.9997,119.8308,32.38,76,54,5.32,CN,1675543857
264,rembang,-6.707,111.3498,75.6,91,100,4.56,ID,1675543857
265,darhan,49.4867,105.9228,-12.03,98,22,4.21,MN,1675543858
266,taoudenni,22.6783,-3.9836,61.18,33,100,11.97,ML,1675543858
267,havelock,34.8791,-76.9013,40.95,48,0,12.66,US,1675543859
268,talara,-4.5772,-81.2719,88.56,48,20,11.5,PE,1675543860
269,svetlaya,46.5389,138.3297,8.6,68,49,6.98,RU,1675543860
270,inuvik,68.3499,-133.7218,-26.54,71,20,3.44,CA,1675543820
271,leopoldina,-21.5319,-42.6431,81.45,82,29,4.05,BR,1675543846
272,rosarito,32.3333,-117.0333,71.02,51,35,8.99,MX,1675543861
273,tornio,65.8481,24.1466,5.02,97,100,2.84,FI,1675543862
274,kingaroy,-26.5333,151.8333,68.22,66,67,5.48,AU,1675543864
275,asfi,32.2994,-9.2372,56.91,71,1,3.53,MA,1675543866
276,faanui,-16.4833,-151.75,81.59,71,70,19.13,PF,1675543867
277,rehoboth,-23.3167,17.0833,76.75,38,100,11.03,NA,1675543869
278,bergama,39.1207,27.1805,41.4,94,100,3.31,TR,1675543871
279,santa isabel do rio negro,-0.4139,-65.0192,82.74,75,91,3.65,BR,1675543873
280,princeton,25.5384,-80.4089,75.2,77,100,24.16,US,1675543804
281,isangel,-19.55,169.2667,82.51,94,75,0.0,VU,1675543877
282,coahuayana,18.7333,-103.6833,89.71,32,0,8.72,MX,1675543879
283,mizan teferi,6.9833,35.5833,66.56,50,20,1.86,ET,1675543880
284,kirakira,-10.4544,161.9205,82.04,82,62,4.25,SB,1675543881
285,dikson,73.5069,80.5464,-4.36,98,100,3.38,RU,1675543884
286,saint george,37.1041,-113.5841,59.43,34,0,4.0,US,1675543889
287,tanout,14.9709,8.8879,76.21,15,92,9.6,NE,1675543891
288,iqaluit,63.7506,-68.5145,-32.31,66,20,15.01,CA,1675543886
289,bodden town,19.2833,-81.25,82.92,75,20,12.66,KY,1675543894
290,kaitangata,-46.2817,169.8464,71.58,67,100,5.12,NZ,1675543894
291,mangrol,21.1167,70.1167,69.46,35,12,7.27,IN,1675543895
292,esperance,-33.8667,121.9,63.45,71,0,14.76,AU,1675543895
293,quatre cocos,-20.2078,57.7625,79.09,85,70,9.42,MU,1675543896
294,denpasar,-8.65,115.2167,76.71,100,75,20.71,ID,1675543755
295,acapulco,16.8634,-99.8901,87.62,48,0,6.91,MX,1675543897
296,san juan bautista,-14.0108,-75.7358,84.38,45,49,14.97,PE,1675543897
297,flin flon,54.7682,-101.865,4.84,66,100,6.91,CA,1675543898
298,broome,42.2506,-75.833,20.01,58,100,6.91,US,1675543898
299,khaga,25.7833,81.1167,56.41,51,0,5.95,IN,1675543899
300,izumo,35.3667,132.7667,33.75,74,57,3.15,JP,1675543648
301,port hawkesbury,45.6169,-61.3485,3.58,85,100,28.77,CA,1675543887
302,port moresby,-9.4431,147.1797,76.42,88,40,11.5,PG,1675543779
303,la ronge,55.1001,-105.2842,10.65,67,100,1.14,CA,1675543813
304,cukai,4.25,103.4167,76.95,92,100,6.76,MY,1675543900
305,nikolskoye,59.7035,30.7861,28.29,92,100,7.47,RU,1675543901
306,flinders,-34.5833,150.8552,68.05,64,0,5.99,AU,1675543891
307,qaqortoq,60.7167,-46.0333,24.62,81,100,22.68,GL,1675543901
308,badiraguato,25.3667,-107.5167,85.71,15,3,5.61,MX,1675543902
309,pecos,31.4229,-103.4932,69.3,27,0,3.44,US,1675543627
310,yei,4.095,30.6779,75.96,31,26,2.86,SS,1675543903
311,richards bay,-28.783,32.0377,71.91,90,16,3.15,ZA,1675543903
312,adrar,20.5022,-10.0711,63.0,16,100,10.4,MR,1675543904
313,texarkana,33.4251,-94.0477,57.42,39,0,8.99,US,1675543758
314,cayenne,4.9333,-52.3333,77.04,94,75,8.05,GF,1675543904
315,saint anthony,45.0205,-93.218,30.09,63,0,8.05,US,1675543746
316,byron bay,-28.65,153.6167,75.94,81,100,8.32,AU,1675543905
317,lufilufi,-13.8745,-171.5986,76.78,77,99,16.58,WS,1675543905
318,aklavik,68.2191,-135.0107,-36.4,67,20,3.44,CA,1675543906
319,vostok,46.4856,135.8833,-3.59,97,100,4.5,RU,1675543907
320,rantauprapat,2.1,99.8333,71.74,99,100,2.89,ID,1675543909
321,imbituba,-28.24,-48.6703,76.33,81,38,9.08,BR,1675543909
322,gao,16.6362,1.637,76.87,12,34,11.32,ML,1675543910
323,shingu,33.7333,135.9833,35.67,80,15,7.02,JP,1675543910
324,dunedin,-45.8742,170.5036,68.81,83,100,10.0,NZ,1675543911
325,muisne,0.6,-80.0333,76.03,90,100,8.75,EC,1675543911
326,weiz,47.2167,15.6167,34.12,68,7,7.4,AT,1675543912
327,lithgow,-33.4833,150.15,52.95,65,0,3.94,AU,1675543912
328,hendrina,-26.1588,29.7153,54.73,95,0,7.18,ZA,1675543913
329,sangod,24.9167,76.2833,62.28,35,0,2.04,IN,1675543913
330,chaves,33.3834,-104.4505,57.61,28,0,4.61,US,1675543913
331,vanimo,-2.6741,141.3028,76.42,89,100,3.24,PG,1675543615
332,bagdarin,54.4333,113.6,-11.87,95,53,3.91,RU,1675543914
333,sao gabriel da cachoeira,-0.1303,-67.0892,78.94,93,100,1.07,BR,1675543915
334,funtua,11.5233,7.3081,74.73,15,100,10.56,NG,1675543915
335,ilulissat,69.2167,-51.1,-2.18,78,40,6.91,GL,1675543916
336,statesboro,32.4488,-81.7832,58.53,37,0,4.61,US,1675543917
337,caravelas,-17.7125,-39.2481,79.84,80,5,10.25,BR,1675543913
338,halmaj,48.25,21.0,27.82,72,8,12.48,HU,1675543917
339,roald,62.5833,6.1333,43.72,65,40,14.97,NO,1675543918
340,geraldton,-28.7667,114.6,72.01,88,100,6.91,AU,1675543918
341,koslan,63.4564,48.8989,4.57,99,100,2.17,RU,1675543919
342,olavarria,-36.8927,-60.3225,82.83,29,0,3.89,AR,1675543920
343,nampula,-15.1165,39.2666,76.95,88,20,9.22,MZ,1675543922
344,svetlogorsk,52.6333,29.7333,19.78,92,90,9.84,BY,1675543925
345,xuddur,4.1213,43.8894,74.75,29,11,11.65,SO,1675543930
346,khandbari,27.3747,87.2039,52.23,64,22,3.51,NP,1675543932
347,san cristobal,7.7669,-72.225,78.98,36,13,6.44,VE,1675543801
348,tuatapere,-46.1333,167.6833,67.73,92,100,2.28,NZ,1675543825
349,heiligenhafen,54.3667,10.9833,32.05,81,38,10.47,DE,1675543938
350,lasa,46.6166,10.7002,36.48,83,37,9.31,IT,1675543939
351,kaduna,10.5222,7.4383,77.99,14,95,6.89,NG,1675543672
352,kokopo,-4.352,152.2633,77.65,83,100,3.6,PG,1675543947
353,umea,63.8284,20.2597,10.9,77,0,3.44,SE,1675543948
354,chuy,-33.6971,-53.4616,72.59,66,1,17.31,UY,1675543950
355,beloha,-25.1667,45.05,73.33,83,99,14.25,MG,1675543859
356,auki,-8.7676,160.7034,80.91,85,100,5.21,SB,1675543830
357,tchaourou,8.8865,2.5975,85.91,15,97,4.18,BJ,1675543769
358,port lincoln,-34.7333,135.8667,60.76,78,53,4.36,AU,1675543954
359,tambura,5.6,27.4667,75.43,19,36,5.17,SS,1675543955
360,ancud,-41.8697,-73.8203,69.21,66,52,4.61,CL,1675543956
361,atambua,-9.1061,124.8925,72.55,91,100,1.72,ID,1675543776
362,kabanjahe,3.1001,98.4908,62.28,95,100,1.14,ID,1675543957
363,tilichiki,60.4667,166.1,-18.24,98,42,8.43,RU,1675543784
364,cockburn town,21.4612,-71.1419,80.56,61,40,16.11,TC,1675543957
365,honiara,-9.4333,159.95,80.6,85,97,2.55,SB,1675543958
366,narsaq,60.9167,-46.05,32.22,87,100,17.29,GL,1675543959
367,trincomalee,8.5711,81.2335,78.93,75,72,12.1,LK,1675543959
368,fare,-16.7,-151.0167,81.27,73,20,17.63,PF,1675543960
369,rincon,32.296,-81.2354,55.9,54,20,9.22,US,1675543960
370,grand gaube,-20.0064,57.6608,79.38,79,97,1.01,MU,1675543960
371,hofn,64.2539,-15.2082,33.53,58,36,11.41,IS,1675543961
372,hamilton,39.1834,-84.5333,48.72,38,0,18.41,US,1675543837
373,asau,46.4333,26.4,25.72,95,100,11.92,RO,1675543962
374,svetlyy,54.675,20.1347,28.96,74,73,10.13,RU,1675543962
375,roma,43.2128,-75.4557,12.09,55,100,10.36,US,1675543963
376,vrangel,42.7297,133.0839,18.84,65,66,3.94,RU,1675543963
377,alice springs,-23.7,133.8833,53.15,94,2,4.61,AU,1675543964
378,picton,-34.1833,150.6,64.76,59,0,5.41,AU,1675543964
379,bay roberts,47.5999,-53.2648,8.35,89,100,11.01,CA,1675543965
380,joshimath,30.5667,79.5667,38.66,44,2,9.91,IN,1675543965
381,metro,-5.1131,105.3067,75.49,88,100,1.63,ID,1675543966
382,yaan,7.3833,8.5667,87.94,19,100,3.65,NG,1675543966
383,sabla,12.7525,4.7077,80.19,13,65,8.61,NG,1675543967
384,denia,38.8408,0.1057,57.33,50,0,1.99,ES,1675543967
385,kaniama,-7.5667,24.1833,63.52,98,91,4.05,CD,1675543968
386,shizukuishi,39.6833,140.9833,19.09,92,19,3.09,JP,1675543968
387,puerto del rosario,28.5004,-13.8627,60.55,67,20,8.05,ES,1675543865
388,ulaangom,49.9811,92.0667,-16.22,92,70,2.77,MN,1675543969
389,damaturu,11.747,11.9608,75.56,15,98,9.19,NG,1675543969
390,igrim,63.1906,64.4162,4.57,98,99,3.6,RU,1675543970
391,clifton,40.8584,-74.1638,25.2,32,0,8.05,US,1675543970
392,tasiilaq,65.6145,-37.6368,24.96,81,100,16.15,GL,1675543971
393,sao filipe,14.8961,-24.4956,71.62,63,37,13.96,CV,1675543971
394,tselinnoye,53.0833,85.6667,-4.27,100,99,2.93,RU,1675543972
395,horstel,52.3167,7.5833,39.45,64,23,5.59,DE,1675543972
396,chenghai,23.4632,116.768,57.11,94,75,4.47,CN,1675543973
397,rayon,19.1444,-99.5836,70.86,31,2,3.04,MX,1675543973
398,taywarah,33.35,64.4167,18.55,72,32,4.74,AF,1675543974
399,vila velha,-20.3297,-40.2925,85.95,81,0,16.11,BR,1675543974
400,iralaya,15.0,-83.2333,80.17,69,2,13.11,HN,1675543975
401,soe,-9.8607,124.284,66.69,97,100,2.95,ID,1675543975
402,belmonte,-15.8631,-38.8828,80.82,79,2,11.03,BR,1675543754
403,mehamn,71.0357,27.8492,28.35,80,100,5.75,NO,1675543976
404,carutapera,-1.195,-46.02,77.25,93,100,8.88,BR,1675543976
405,chupa,66.27,33.0549,9.93,89,19,7.87,RU,1675543977
406,aykhal,66.0,111.5,-36.17,100,100,2.35,RU,1675543977
407,nemyriv,48.9708,28.8378,25.41,71,100,12.75,UA,1675543978
408,praia da vitoria,38.7333,-27.0667,61.75,94,75,12.39,PT,1675543978
409,camacari,-12.6975,-38.3242,82.17,72,0,9.51,BR,1675543979
410,bayangol,50.6977,103.4656,-9.53,97,82,3.33,RU,1675543979
411,chau doc,10.7,105.1167,70.72,86,37,1.9,VN,1675543979
412,chanika,-5.4167,38.0167,68.68,95,100,3.15,TZ,1675543980
413,mogadishu,2.0371,45.3438,76.57,75,30,22.64,SO,1675543980
414,canyon,34.9803,-101.9188,67.51,12,98,15.57,US,1675543981
415,ringebu,61.5167,10.1667,7.59,100,100,3.76,NO,1675543982
416,airai,-8.9266,125.4092,60.03,91,99,2.51,TL,1675543985
417,hudson bay,52.85,-102.3842,17.22,86,100,1.48,CA,1675543988
418,tura,25.5198,90.2201,56.61,54,0,2.42,IN,1675543990
419,awjilah,29.1081,21.2869,55.26,51,100,4.9,LY,1675543991
420,manjacaze,-24.7117,33.8828,73.15,91,26,6.35,MZ,1675543998
421,businga,3.3333,20.8833,77.07,27,78,1.66,CD,1675544001
422,bahia honda,22.9036,-83.1592,76.35,75,56,13.38,CU,1675543787
423,milkovo,54.7167,158.6167,-10.05,98,99,2.1,RU,1675544007
424,talnakh,69.4865,88.3972,11.21,96,100,6.46,RU,1675544010
425,oriximina,-1.7656,-55.8661,82.98,71,90,4.83,BR,1675543967
426,lorengau,-2.0226,147.2712,81.36,73,100,4.23,PG,1675544013
427,kolomak,49.8399,35.3044,27.79,96,100,3.62,UA,1675544014
428,kearney,40.6995,-99.0815,43.25,57,0,8.05,US,1675543880
429,salalah,17.0151,54.0924,73.49,78,40,2.3,OM,1675544014
430,san quintin,30.4833,-115.95,64.45,53,0,11.03,MX,1675544015
431,jiuquan,39.7432,98.5174,24.94,45,39,5.41,CN,1675544015
432,chicama,-7.8447,-79.1469,73.94,56,42,10.85,PE,1675544016
433,labytnangi,66.6572,66.4183,3.79,90,53,6.78,RU,1675544016
434,senador guiomard,-10.1522,-67.7392,78.55,90,90,3.53,BR,1675544017
435,praya,14.9215,-23.5087,72.14,60,56,19.57,CV,1675544017
436,prince rupert,54.3161,-130.3201,44.69,92,100,34.52,CA,1675544018
437,ballarat,-37.5662,143.8496,52.57,93,100,1.01,AU,1675544019
438,arlit,18.7369,7.3853,74.1,11,20,11.54,NE,1675544019
439,oxford,51.7522,-1.256,47.37,89,75,9.22,GB,1675543789
440,dayong,25.0209,118.2898,56.34,93,100,2.17,CN,1675544020
441,abu samrah,35.3029,37.1841,41.32,81,100,0.87,SY,1675544021
442,lichtenburg,-26.152,26.1597,68.81,64,68,5.44,ZA,1675544021
443,whyalla,-33.0333,137.5833,63.5,68,0,7.92,AU,1675544021
444,mokhsogollokh,61.4681,128.9203,-36.35,100,97,3.78,RU,1675544022
445,broken hill,-31.95,141.4333,60.64,57,0,11.77,AU,1675544023
446,calatrava,10.595,123.4838,76.91,86,51,5.84,PH,1675544023
447,udachnyy,66.4167,112.4,-40.56,72,86,0.47,RU,1675544024
448,sao goncalo do amarante,-3.6072,-38.9683,82.13,80,91,8.23,BR,1675544025
449,eldorado,-23.7869,-54.2836,81.63,65,43,1.83,BR,1675544026
450,englewood,39.6478,-104.9878,55.63,21,20,18.41,US,1675543785
451,iskateley,67.6803,53.1512,1.96,98,53,7.74,RU,1675544026
452,moroni,-11.7022,43.2551,79.79,79,42,0.96,KM,1675544027
453,luderitz,-26.6481,15.1594,63.52,86,15,15.82,NA,1675543827
454,muzhi,65.3667,64.6667,3.7,91,18,6.26,RU,1675544028
455,tingo maria,-9.2895,-76.0088,82.04,68,41,3.42,PE,1675544028
456,bathsheba,13.2167,-59.5167,83.01,69,40,21.85,BB,1675544028
457,katsina,12.9894,7.6006,80.49,28,0,5.75,NG,1675544029
458,montes altos,-5.8333,-47.0667,80.58,76,87,4.29,BR,1675544029
459,nongstoin,25.5167,91.2667,46.99,76,4,3.69,IN,1675544030
460,sistranda,63.7256,8.834,33.76,53,100,10.4,NO,1675544030
461,danjiangkou,32.5428,111.5086,38.55,69,93,2.24,CN,1675544031
462,saldanha,-33.0117,17.9442,66.25,96,88,14.74,ZA,1675544032
463,leningradskiy,69.3833,178.4167,-26.32,99,100,4.9,RU,1675544032
464,shahrud,36.4182,54.9763,33.73,61,95,2.15,IR,1675544033
465,san luis,-33.295,-66.3356,85.71,18,0,9.6,AR,1675544033
466,jumla,29.2747,82.1838,37.09,42,0,4.03,NP,1675544034
467,ngunguru,-35.6167,174.5,69.37,79,90,10.96,NZ,1675544034
468,oistins,13.0667,-59.5333,82.49,69,40,21.85,BB,1675543795
469,mount gambier,-37.8333,140.7667,56.88,82,100,2.75,AU,1675544035
470,chauk,20.8833,94.8167,66.06,34,33,5.26,MM,1675544035
471,korce,40.6186,20.7808,33.33,76,97,11.54,AL,1675543925
472,dwarka,22.2394,68.9678,69.03,63,56,9.06,IN,1675543921
473,combita,5.6333,-73.3167,62.11,47,89,5.1,CO,1675544037
474,finote selam,10.7,37.2667,61.39,44,7,2.48,ET,1675544037
475,bambanglipuro,-7.95,110.2833,77.36,86,100,10.49,ID,1675544038
476,gigmoto,13.7796,124.39,77.02,88,94,13.44,PH,1675544038
477,kahului,20.8947,-156.47,75.97,84,75,16.11,US,1675543811
478,lyuban,52.7985,28.0048,21.54,93,99,8.66,BY,1675544039
479,omaruru,-21.4333,15.9333,70.07,66,87,3.91,NA,1675544039
480,skoghall,59.3232,13.4655,21.76,86,78,5.75,SE,1675544040
481,joensuu,62.6012,29.7632,5.49,85,0,4.61,FI,1675544040
482,lake havasu city,34.4839,-114.3224,68.92,24,0,3.44,US,1675544041
483,itirapina,-22.2528,-47.8228,71.85,91,100,7.67,BR,1675544041
484,ust-maya,60.4167,134.5333,-28.17,99,100,0.72,RU,1675544042
485,sao jose da tapera,-9.5583,-37.3811,87.84,41,90,19.01,BR,1675544051
486,peniche,39.3558,-9.3811,53.11,88,0,13.6,PT,1675544053
487,winslow,35.0242,-110.6974,51.98,32,0,4.61,US,1675544057
488,ketchikan,55.3422,-131.6461,46.38,87,100,8.05,US,1675544058
489,nizhniy baskunchak,48.2198,46.8311,22.93,97,77,4.65,RU,1675544058
490,eureka,40.8021,-124.1637,61.25,47,100,5.99,US,1675544059
491,labuhan,-6.8844,112.2051,76.69,89,100,6.93,ID,1675543976
492,maridi,4.9158,29.4742,75.58,28,29,3.76,SS,1675544060
493,hornepayne,49.2138,-84.7705,20.21,94,100,9.06,CA,1675544060
494,namibe,-15.1961,12.1522,71.06,76,52,7.63,AO,1675544062
495,skjervoy,70.0311,20.9714,26.6,68,99,15.57,NO,1675544062
496,maxixe,-23.8597,35.3472,74.98,89,8,7.29,MZ,1675544063
497,ternate,0.8,127.4,78.64,79,100,7.25,ID,1675544016
498,pilar,-9.5972,-35.9567,84.13,76,32,8.68,BR,1675544064
499,poum,-20.2333,164.0167,81.54,78,35,4.56,NC,1675544064
500,warwick,41.7001,-71.4162,16.29,27,75,10.36,US,1675544065
501,napasar,27.9667,73.55,66.15,27,0,1.74,IN,1675544065
502,raga,8.4596,25.678,73.99,17,51,3.53,SS,1675544066
503,wamba,8.9333,8.6,81.18,17,18,4.27,NG,1675544067
504,areka,7.0667,37.7,63.1,39,8,7.85,ET,1675544067
505,berezovyy,51.6667,135.7,-11.49,96,100,2.01,RU,1675544068
506,vondrozo,-22.8167,47.2833,67.23,99,100,1.23,MG,1675544069
507,pinan,58.68,11.6463,27.39,69,36,7.61,SE,1675544069
508,sechura,-5.5569,-80.8222,81.5,57,84,16.6,PE,1675544070
509,ambon,-3.6954,128.1814,75.34,94,40,3.44,ID,1675544071
510,osa,57.2829,55.4567,2.5,96,100,0.94,RU,1675544071
511,banda aceh,5.5577,95.3222,76.41,87,85,5.03,ID,1675544072
512,constitucion,-35.3333,-72.4167,67.5,75,34,6.17,CL,1675544072
513,garissa,-0.4536,39.6401,81.95,46,57,11.1,KE,1675544073
514,bandarbeyla,9.4942,50.8122,75.27,65,100,15.59,SO,1675544073
515,humaita,-7.5061,-63.0208,83.26,70,76,1.9,BR,1675544074
516,lompoc,34.6391,-120.4579,71.69,71,0,10.0,US,1675544074
517,kavaratti,10.5669,72.642,81.21,67,81,5.39,IN,1675544074
518,derzhavinsk,51.1,66.3167,0.52,97,39,9.4,KZ,1675544075
519,sioux lookout,50.1001,-91.917,5.07,72,100,0.0,CA,1675544076
520,carmaux,44.051,2.158,48.47,83,0,1.39,FR,1675544076
521,saint-louis,16.3333,-15.0,72.97,10,62,13.4,SN,1675543841
522,goulburn,-34.75,149.7167,55.69,67,0,13.02,AU,1675544077
523,atlantic city,39.3643,-74.4229,29.01,41,0,11.01,US,1675544078
524,krasnoselkup,65.7,82.4667,5.79,96,100,8.79,RU,1675544078
525,miranda,3.2499,-76.2281,86.13,67,60,1.14,CO,1675544079
526,yeppoon,-23.1333,150.7333,80.38,85,59,9.04,AU,1675544079
527,lingao,19.9103,109.6859,68.67,92,98,11.81,CN,1675544080
528,rodney,42.5668,-81.6831,25.48,59,11,19.26,CA,1675544080
529,takaka,-40.85,172.8,70.56,94,99,5.44,NZ,1675544081
530,polgar,47.8667,21.1167,28.9,65,4,15.23,HU,1675544081
531,nelson bay,-32.7167,152.15,68.0,64,0,8.01,AU,1675544082
532,fairbanks,64.8378,-147.7164,10.36,79,100,3.44,US,1675544082
533,nago,26.5881,127.9761,61.65,76,98,10.78,JP,1675544083
534,hrubieszow,50.805,23.8925,24.8,84,100,9.4,PL,1675544083
535,kruisfontein,-34.0033,24.7314,71.96,66,100,2.77,ZA,1675544084
536,zemio,5.0314,25.1361,74.1,24,22,3.29,CF,1675544084
537,anadyr,64.75,177.4833,-21.5,69,0,8.95,RU,1675544085
538,vanino,49.0869,140.2543,-8.66,92,45,4.65,RU,1675544085
539,nantucket,41.2835,-70.0995,15.94,51,0,17.27,US,1675544086
540,dabat,12.9842,37.765,54.77,45,12,2.3,ET,1675544087
541,umm kaddadah,13.6017,26.6876,64.35,16,51,12.39,SD,1675544087
542,maymyo,22.0333,96.4667,57.92,48,91,1.59,MM,1675544088
543,banff,51.1762,-115.5698,40.23,44,71,9.22,CA,1675543802
544,kurumkan,54.3,110.3,-6.66,93,44,4.41,RU,1675544088
545,ust-tsilma,65.441,52.1498,-3.37,100,92,2.89,RU,1675544092
546,ponta do sol,32.6667,-17.1,63.23,49,23,9.71,PT,1675543809
547,lesozavodsk,45.4794,133.4244,5.97,96,100,7.45,RU,1675544092
548,balykshi,47.0667,51.8667,12.2,92,75,8.95,KZ,1675544093
549,saint-augustin,51.226,-58.6502,8.22,72,71,23.04,CA,1675544093
550,keti bandar,24.1447,67.4497,69.33,81,1,8.52,PK,1675544094
551,anloga,5.7947,0.8973,81.28,86,50,15.75,GH,1675544094
552,asekeyevo,53.5742,52.7972,10.98,91,100,4.34,RU,1675544095
553,catamarca,-28.4696,-65.7852,81.77,53,81,3.0,AR,1675544095
554,san ramon,37.7799,-121.978,61.43,84,100,11.5,US,1675544096
555,morant bay,17.8815,-76.4093,82.71,67,5,10.49,JM,1675543874
556,mujiayingzi,42.1167,118.7833,20.59,40,75,7.14,CN,1675544097
557,river rouge,42.2734,-83.1344,34.12,55,0,20.71,US,1675544097
558,riyadh,24.6877,46.7219,60.94,52,0,13.89,SA,1675544090
559,beruwala,6.4788,79.9828,74.93,90,31,4.12,LK,1675544098
560,balkhash,46.844,74.9804,14.83,97,92,2.91,KZ,1675544098
561,albion,42.2431,-84.753,34.18,56,0,14.97,US,1675544099
562,ahipara,-35.1667,173.1667,70.56,78,100,9.48,NZ,1675544099
563,namie,37.4833,141.0,30.72,65,1,11.5,JP,1675543911
564,opuwo,-18.0607,13.84,72.34,32,84,2.1,NA,1675544100
565,senno,59.5336,33.9167,24.26,95,97,6.26,RU,1675544100
566,mao,39.8885,4.2658,55.96,71,0,13.8,ES,1675544101
567,te anau,-45.4167,167.7167,64.85,98,100,3.27,NZ,1675544102
568,severodvinsk,64.5635,39.8302,11.32,98,74,5.57,RU,1675544102
569,bilma,18.6853,12.9164,73.26,15,26,5.12,NE,1675544103
570,ulladulla,-35.35,150.4667,61.3,64,0,3.89,AU,1675543853
571,gondar,12.6,37.4667,60.03,40,20,5.03,ET,1675544104
572,boguchany,58.3814,97.4531,6.24,98,98,2.71,RU,1675544105
573,kirensk,57.7853,108.1119,6.84,96,100,5.55,RU,1675544105
574,birao,10.2849,22.7882,73.38,13,51,6.51,CF,1675544106
575,santo antonio do ica,-3.1022,-67.9397,78.91,92,100,0.81,BR,1675543852
576,dafeng,23.4517,108.5881,56.35,96,100,3.62,CN,1675544107
577,brokopondo,4.75,-55.1667,77.72,88,45,11.3,SR,1675544108
578,muros,42.7762,-9.0603,49.84,78,2,8.99,ES,1675544108
579,bharatpur,27.2167,77.4833,58.68,42,0,6.44,IN,1675544109
580,port-gentil,-0.7193,8.7815,80.56,94,20,5.75,GA,1675544110
581,havre-saint-pierre,50.2334,-63.5986,8.6,56,100,25.32,CA,1675544110
582,loandjili,-4.7561,11.8578,78.91,83,75,6.91,CG,1675544110
583,orlik,52.5178,99.825,-9.08,98,95,2.51,RU,1675544111
584,brae,60.3964,-1.353,42.57,66,69,25.68,GB,1675543881
585,tateyama,34.9833,139.8667,43.11,68,4,12.26,JP,1675544112
586,caluquembe,-13.7833,14.6833,63.66,69,98,3.47,AO,1675544113
587,lethem,3.3803,-59.7968,87.73,50,99,11.99,GY,1675544113
588,darnah,32.767,22.6367,56.98,67,0,19.71,LY,1675544113
589,ormara,25.2088,64.6357,70.84,80,0,9.6,PK,1675544115
590,huarmey,-10.0681,-78.1522,75.6,74,78,8.43,PE,1675544115
591,baykit,61.67,96.37,2.17,100,99,1.68,RU,1675544116
592,kailua,21.4022,-157.7394,71.49,90,100,1.99,US,1675544116
593,dingle,10.9995,122.6711,74.1,94,96,8.84,PH,1675544117
594,canico,32.6333,-16.85,63.23,74,40,18.41,PT,1675544117
595,henties bay,-22.116,14.2845,64.45,87,99,7.23,NA,1675544118
